[
    {
        "cityName": "Chernivtsi",
        "latitude": 48.2915,
        "longitude": 25.9403
    },
    {
        "cityName": "Odessa",
        "latitude": 46.4825,
        "longitude": 30.7233
    },
    {
        "cityName": "Vienna",
        "latitude": 48.2081,
        "longitude": 16.3713
    },
    {
        "cityName": "Kyiv",
        "latitude": 50.4501,
        "longitude": 30.5234
    },
    {
        "cityName": "Lviv",
        "latitude": 49.8397,
        "longitude": 24.0297
    },
    {
        "cityName": "Kharkiv",
        "latitude": 49.9935,
        "longitude": 36.2304
    },
    {
        "cityName": "Dnipro",
        "latitude": 48.4647,
        "longitude": 35.0462
    },
    {
        "cityName": "Ivano-Frankivsk",
        "latitude": 48.9226,
        "longitude": 24.7103
    },
    {
        "cityName": "Zaporizhzhia",
        "latitude": 47.8388,
        "longitude": 35.1396
    },
    {
        "cityName": "Mariupol",
        "latitude": 47.0951,
        "longitude": 37.5413
    },
    {
        "cityName": "Poltava",
        "latitude": 49.5883,
        "longitude": 34.5514
    },
    {
        "cityName": "Kherson",
        "latitude": 46.6354,
        "longitude": 32.6169
    },
    {
        "cityName": "Uzhhorod",
        "latitude": 48.6219,
        "longitude": 22.2879
    },
    {
        "cityName": "Mykolaiv",
        "latitude": 46.975,
        "longitude": 31.9946
    },
    {
        "cityName": "Sumy",
        "latitude": 50.9077,
        "longitude": 34.7981
    },
    {
        "cityName": "Vinnytsia",
        "latitude": 49.2331,
        "longitude": 28.4682
    },
    {
        "cityName": "Donetsk",
        "latitude": 48.0159,
        "longitude": 37.8028
    },
    {
        "cityName": "Krakow",
        "latitude": 50.0647,
        "longitude": 19.945
    }
]
